[
  {
    "name": "Food Store",
    "description": "Ecomerse de comida",
    "image": "./data/clientData/foodStore/logo.jpeg",
    "icon": "",
    "heroBackgroundImage": "./data/clientData/foodStore/hero_background.webp",
    "whatsapp": "+1111111111",
    "address": "Alguna calle",

    "horarios": [
      {
        "day": "Lunes",
        "hours": "0:00 - 23:59"
      },
      {
        "day": "Martes",
        "hours": "0:00 - 23:59"
      },
      {
        "day": "Miércoles",
        "hours": "0:00 - 23:59"
      },
      {
        "day": "Jueves",
        "hours": "0:00 - 23:59"
      },
      {
        "day": "Viernes",
        "hours": "0:00 - 23:59"
      },
      {
        "day": "Sábado",
        "hours": "0:00 - 23:59"
      },
      {
        "day": "Domingo",
        "hours": "0:00 - 23:59"
      }
    ],
    "envios": [
      { "day": "Lunes", "hours": "00:00 - 23:59"},
      { "day": "Martes", "hours": "00:00 - 23:59"},
      { "day": "Miércoles", "hours": "00:00 - 23:59"},
      { "day": "Jueves", "hours": "00:00 - 23:59" },
      { "day": "Viernes", "hours": "00:00 - 23:59"},
      { "day": "Sábado", "hours": "00:00 - 23:59"},
      { "day": "Domingo", "hours": "00:00 - 23:59"}
    ],
    "socialNetworks": [
      {
        "name": "Facebook",
        "link": "https://www.facebook.com"
      },
      {
        "name": "Instagram",
        "link": "https://www.instagram.com"
      },
      {
        "name": "Twitter",
        "link": "https://www.twitter.com"
      },
      {
        "name": "Youtube",
        "link": "https://www.youtube.com"
      },
      {
        "name": "Tiktok",
        "link": "https://www.tiktok.com"
      }
    ],
    "store": "./clientData/foodStore/products.json"
  }
]
